{
    "type": "FeatureCollection",
    "features": [
    { "type": "Feature", "properties": { "naam": "Gent", "id": "1" }, "geometry": { "type": "Point", "coordinates": [ 3.735366254816557, 51.036587373650136 ] } },
    { "type": "Feature", "properties": { "naam": "Mons", "id": "2" }, "geometry": { "type": "Point", "coordinates": [ 3.95765182533884, 50.462460853880707 ] } },
    { "type": "Feature", "properties": { "naam": "Leuven", "id": "3" }, "geometry": { "type": "Point", "coordinates": [ 4.730191542466111, 50.853666571611043 ] } },
    { "type": "Feature", "properties": { "naam": "Huizingen", "id": "4" }, "geometry": { "type": "Point", "coordinates": [ 4.263199982695974, 50.752616196453609 ] } },
    { "type": "Feature", "properties": { "naam": "Kontich", "id": "5" }, "geometry": { "type": "Point", "coordinates": [ 4.438297469840964, 51.141929575574025 ] } },
    { "type": "Feature", "properties": { "naam": "Lummen", "id": "6" }, "geometry": { "type": "Point", "coordinates": [ 5.198166882595712, 50.995178065711926 ] } }
    ]
    }
    